[
  {"id":1,"name":"Whitefield (Kadugodi)","line":"Purple Line","status":"operational","lat":12.9698,"lng":77.7500},
  {"id":2,"name":"Kadugodi Tree Park","line":"Purple Line","status":"operational","lat":12.9852,"lng":77.7443},
  {"id":3,"name":"Pattandur Agrahara","line":"Purple Line","status":"operational","lat":12.9965,"lng":77.7385},
  {"id":4,"name":"Sri Sathya Sai Hospital","line":"Purple Line","status":"operational","lat":13.0048,"lng":77.7266},
  {"id":5,"name":"Nallurhalli","line":"Purple Line","status":"operational","lat":13.0087,"lng":77.7110},
  {"id":6,"name":"Kundalahalli","line":"Purple Line","status":"operational","lat":12.9960,"lng":77.6960},
  {"id":7,"name":"Hoodi","line":"Purple Line","status":"operational","lat":12.9915,"lng":77.6850},
  {"id":8,"name":"Garudacharpalya","line":"Purple Line","status":"operational","lat":12.9856,"lng":77.6718},
  {"id":9,"name":"Mahadevapura","line":"Purple Line","status":"operational","lat":12.9909,"lng":77.6582},
  {"id":10,"name":"KR Puram","line":"Purple Line","status":"operational","lat":12.9980,"lng":77.6762},
  {"id":11,"name":"Baiyappanahalli","line":"Purple Line","status":"operational","lat":12.9942,"lng":77.6380},
  {"id":12,"name":"Swami Vivekananda Road","line":"Purple Line","status":"operational","lat":12.9850,"lng":77.6247},
  {"id":13,"name":"Indiranagar","line":"Purple Line","status":"operational","lat":12.9784,"lng":77.6408},
  {"id":14,"name":"Halasuru","line":"Purple Line","status":"operational","lat":12.9779,"lng":77.6270},
  {"id":15,"name":"Trinity","line":"Purple Line","status":"operational","lat":12.9738,"lng":77.6115},
  {"id":16,"name":"Mahatma Gandhi Road","line":"Purple Line","status":"operational","lat":12.9756,"lng":77.6050},
  {"id":17,"name":"Cubbon Park","line":"Purple Line","status":"operational","lat":12.9763,"lng":77.5929},
  {"id":18,"name":"Dr. B. R. Ambedkar Station (Vidhana Soudha)","line":"Purple Line","status":"operational","lat":12.9798,"lng":77.5913},
  {"id":19,"name":"Sir M. Visvesvaraya Station (Central College)","line":"Purple Line","status":"operational","lat":12.9770,"lng":77.5840},
  {"id":20,"name":"Nadaprabhu Kempegowda Station (Majestic)","line":"Purple Line","status":"operational","lat":12.9769,"lng":77.5723},
  {"id":21,"name":"City Railway Station","line":"Purple Line","status":"operational","lat":12.9776,"lng":77.5668},
  {"id":22,"name":"Magadi Road","line":"Purple Line","status":"operational","lat":12.9755,"lng":77.5567},
  {"id":23,"name":"Hosahalli","line":"Purple Line","status":"operational","lat":12.9696,"lng":77.5465},
  {"id":24,"name":"Vijayanagar","line":"Purple Line","status":"operational","lat":12.9605,"lng":77.5384},
  {"id":25,"name":"Attiguppe","line":"Purple Line","status":"operational","lat":12.9513,"lng":77.5332},
  {"id":26,"name":"Deepanjali Nagar","line":"Purple Line","status":"operational","lat":12.9461,"lng":77.5256},
  {"id":27,"name":"Mysuru Road","line":"Purple Line","status":"operational","lat":12.9365,"lng":77.5196},
  {"id":28,"name":"Nayandahalli","line":"Purple Line","status":"operational","lat":12.9274,"lng":77.5112},
  {"id":29,"name":"Rajarajeshwari Nagar","line":"Purple Line","status":"operational","lat":12.9149,"lng":77.5045},
  {"id":30,"name":"Jnanabharathi","line":"Purple Line","status":"operational","lat":12.9041,"lng":77.4983},
  {"id":31,"name":"Pattanagere","line":"Purple Line","status":"operational","lat":12.8982,"lng":77.4920},
  {"id":32,"name":"Kengeri Bus Terminal","line":"Purple Line","status":"operational","lat":12.8892,"lng":77.4820},
  {"id":33,"name":"Kengeri","line":"Purple Line","status":"operational","lat":12.8767,"lng":77.4690},

  {"id":34,"name":"Nagasandra","line":"Green Line","status":"operational","lat":13.0475,"lng":77.4950},
  {"id":35,"name":"Dasarahalli","line":"Green Line","status":"operational","lat":13.0370,"lng":77.4930},
  {"id":36,"name":"Jalahalli","line":"Green Line","status":"operational","lat":13.0285,"lng":77.5030},
  {"id":37,"name":"Peenya Industry","line":"Green Line","status":"operational","lat":13.0280,"lng":77.5190},
  {"id":38,"name":"Peenya","line":"Green Line","status":"operational","lat":13.0280,"lng":77.5330},
  {"id":39,"name":"Goraguntepalya","line":"Green Line","status":"operational","lat":13.0280,"lng":77.5450},
  {"id":40,"name":"Yeshwanthpur","line":"Green Line","status":"operational","lat":13.0285,"lng":77.5400},
  {"id":41,"name":"Sandal Soap Factory","line":"Green Line","status":"operational","lat":13.0144,"lng":77.5531},
  {"id":42,"name":"Mahalakshmi","line":"Green Line","status":"operational","lat":13.0085,"lng":77.5536},
  {"id":43,"name":"Rajajinagar","line":"Green Line","status":"operational","lat":12.9983,"lng":77.5534},
  {"id":44,"name":"Mahakavi Kuvempu Road","line":"Green Line","status":"operational","lat":12.9916,"lng":77.5527},
  {"id":45,"name":"Srirampura","line":"Green Line","status":"operational","lat":12.9847,"lng":77.5600},
  {"id":46,"name":"Nadaprabhu Kempegowda Station (Majestic)","line":"Green Line","status":"operational","lat":12.9769,"lng":77.5723},
  {"id":47,"name":"Chickpete","line":"Green Line","status":"operational","lat":12.9719,"lng":77.5766},
  {"id":48,"name":"Krishna Rajendra Market","line":"Green Line","status":"operational","lat":12.9645,"lng":77.5742},
  {"id":49,"name":"National College","line":"Green Line","status":"operational","lat":12.9547,"lng":77.5683},
  {"id":50,"name":"Lalbagh","line":"Green Line","status":"operational","lat":12.9505,"lng":77.5840},
  {"id":51,"name":"South End Circle","line":"Green Line","status":"operational","lat":12.9434,"lng":77.5800},
  {"id":52,"name":"Rashtreeya Vidyalaya Road","line":"Green Line","status":"operational","lat":12.9373,"lng":77.5806},
  {"id":71,"name":"Jayanagar","line":"Green Line","status":"operational","lat":12.9308,"lng":77.5823},
  {"id":53,"name":"Banashankari","line":"Green Line","status":"operational","lat":12.9250,"lng":77.5733},
  {"id":54,"name":"Jaya Prakash Nagar","line":"Green Line","status":"operational","lat":12.9157,"lng":77.5738},
  {"id":55,"name":"Yelachenahalli","line":"Green Line","status":"operational","lat":12.9046,"lng":77.5732},
  {"id":56,"name":"Konanakunte Cross","line":"Green Line","status":"operational","lat":12.8957,"lng":77.5703},
  {"id":57,"name":"Doddakallasandra","line":"Green Line","status":"operational","lat":12.8895,"lng":77.5632},
  {"id":58,"name":"Vajarahalli","line":"Green Line","status":"operational","lat":12.8835,"lng":77.5573},
  {"id":59,"name":"Thalaghattapura","line":"Green Line","status":"operational","lat":12.8795,"lng":77.5531},
  {"id":60,"name":"Silk Institute","line":"Green Line","status":"operational","lat":12.861858,"lng":77.530007},

  {"id":61,"name":"RV Road","line":"Yellow Line","status":"operational","lat":12.9258,"lng":77.5800},
  {"id":62,"name":"Ragigudda","line":"Yellow Line","status":"operational","lat":12.9175,"lng":77.5905},
  {"id":63,"name":"Jayadeva Hospital","line":"Yellow Line","status":"operational","lat":12.9166,"lng":77.6101},
  {"id":64,"name":"BTM Layout","line":"Yellow Line","status":"operational","lat":12.9160,"lng":77.6200},
  {"id":65,"name":"Silk Board","line":"Yellow Line","status":"operational","lat":12.9170,"lng":77.6230},
  {"id":66,"name":"Bommanahalli","line":"Yellow Line","status":"operational","lat":12.9005,"lng":77.6300},
  {"id":67,"name":"Hongasandra","line":"Yellow Line","status":"operational","lat":12.8895,"lng":77.6380},
  {"id":68,"name":"Kudlu Gate","line":"Yellow Line","status":"operational","lat":12.8795,"lng":77.6480},
  {"id":69,"name":"Hosa Road","line":"Yellow Line","status":"operational","lat":12.8685,"lng":77.6580},
  {"id":70,"name":"Bommasandra","line":"Yellow Line","status":"operational","lat":12.8330,"lng":77.6830}
]
